[{"id":79,"title":"Bergerie Lacroiso","address":"43, route du Petit-Trompe-Souris, Maskinong\u00e9","gmap":"https:\/\/goo.gl\/maps\/7cafHiZty65RpTAq7","phone":"819 227-4856","website":"https:\/\/jardinspts.com\/la-bergerie\/","lat":46.2261950697085,"lng":-73.01466736970849},{"id":85,"title":"Brasserie D\u00e9pareill\u00e9e","address":"751, rue Sainte-Anne, Yamachiche","gmap":"https:\/\/goo.gl\/maps\/n9KG8a1xcFa9LJ9B6","phone":"873 664-2536","website":"https:\/\/brasseriedepareillee.com\/","lat":46.28302796970851,"lng":-72.8262236697085},{"id":130,"title":"Caf\u00e9 Crema","address":"1233, boulevard Saint-Laurent Est, Louiseville","gmap":"https:\/\/goo.gl\/maps\/gHXNAp9GVkSSKD4a7","phone":"819 266-3293","website":"https:\/\/cafecrema.square.site\/","lat":46.2606924197085,"lng":-72.89399806970849},{"id":34,"title":"Cultures AlTerreNatives","address":"2581, rang Augusta, Sainte-Ang\u00e8le-de-Pr\u00e9mont","gmap":"https:\/\/goo.gl\/maps\/RcgBYDTTWaXVHkDP6","phone":"819 244-3346","website":"https:\/\/culturesalterrenatives.ca\/","lat":46.35588911970851,"lng":-73.0674813197085},{"id":87,"title":"Domaine du Sucrier","address":"3400, chemin du Lac, Saint-Boniface","gmap":"https:\/\/goo.gl\/maps\/A6BjWGa6VCXrDjHBA","phone":"819 535-5322","website":"https:\/\/domainedusucrier.ca\/","lat":46.4839233697085,"lng":-72.86449046970849},{"id":90,"title":"Domaine G\u00e9linas","address":"267, rang de Saint-Fran\u00e7ois-de-Pique-Dur, Saint-S\u00e9v\u00e8re","gmap":"https:\/\/g.page\/DomaineGelinas?share","phone":"819 264-5511","website":"https:\/\/www.domainegelinas.com\/","lat":46.3794915697085,"lng":-72.9285371197085},{"id":92,"title":"\u00c9rabli\u00e8re Ladouceur","address":"841, route Savoie, Saint-Justin","gmap":"https:\/\/goo.gl\/maps\/G95rUqL883RAaGcW6","phone":"819 227-2858","website":"https:\/\/www.facebook.com\/erabliereladouceur\/","lat":46.2458394197085,"lng":-73.12781696970849},{"id":27,"title":"Ferme du Garde-Manger","address":"851, route du Bois-Blanc, Saint-Justin","gmap":"https:\/\/goo.gl\/maps\/iLjGk1mtxH1eEXcg8","phone":"819 244-5097","website":"https:\/\/fermedugardemanger.com\/","lat":46.24828816970849,"lng":-73.12464261970848},{"id":98,"title":"Ferme Les Vergers d&rsquo;Or","address":"650, rang Saint-Joseph, Saint-\u00c9lie-de-Caxton","gmap":"https:\/\/goo.gl\/maps\/MdLm1FamcSverkwG7","phone":"819 383-1237","website":"https:\/\/www.vergersdor.com\/","lat":46.4592156197085,"lng":-72.9708926197085},{"id":44,"title":"Ferme Y. Lampron &#038; fils","address":"900, chemin Saint-Onge, Saint-Boniface","gmap":"","phone":"819 690-6826","website":"https:\/\/www.laiterielampron.com\/","lat":46.5274800197085,"lng":-72.82979541970849},{"id":96,"title":"Jardins du Petit-Trompe-Souris","address":"43, route du Petit-Trompe-Souris, Maskinong\u00e9","gmap":"https:\/\/goo.gl\/maps\/mv7vj7Cpgcjv3o2j9","phone":"819 448-4856","website":"https:\/\/jardinspts.com\/","lat":46.2261950697085,"lng":-73.01466736970849},{"id":50,"title":"Jardins Ricard","address":"771, 2e avenue, Louiseville","gmap":"https:\/\/goo.gl\/maps\/GJDT2NhfGTa6rsP79","phone":"819 228-5393","website":"https:\/\/jardinsricard.com\/","lat":46.2449368197085,"lng":-72.92475211970849},{"id":158,"title":"La Chope \u00e0 Miel","address":"2040, boulevard Trudel Est, Saint-Boniface","gmap":"https:\/\/goo.gl\/maps\/BiLQYca4Zc13ejtQ6","phone":"819 609-2407","website":"http:\/\/www.lachopeamiel.com\/","lat":46.5248774697085,"lng":-72.80250211970849},{"id":48,"title":"Le Rieur Sanglier","address":"671, chemin de la Grande Rivi\u00e8re N, Yamachiche","gmap":"https:\/\/goo.gl\/maps\/ZbhiP3DwxjvHqf9S6","phone":"819 296-1316","website":"https:\/\/www.lerieursanglier.com\/","lat":46.3131125697085,"lng":-72.7981556697085},{"id":83,"title":"Les Bou d&rsquo;Ail","address":"820, rue principale, Saint-\u00c9tienne-des-Gr\u00e8s","gmap":"https:\/\/goo.gl\/maps\/Fg2oUuiHnqyB3erF9","phone":"819 535-2876","website":"https:\/\/www.facebook.com\/Les-bou-dail-1649287435301726","lat":46.4308999197085,"lng":-72.76124571970848},{"id":46,"title":"Les couleurs de la terre","address":"1200, chemin de la Grande Rivi\u00e8re N, Yamachiche","gmap":"https:\/\/goo.gl\/maps\/r27E5z7K8gXT2X7EA","phone":"819 690-4804","website":"https:\/\/www.lescouleursdelaterre.ca\/","lat":46.3585696197085,"lng":-72.81761081970849},{"id":109,"title":"Microbrasserie Nouvelle-France","address":"90, rang de la Rivi\u00e8re-aux-\u00c9corces, Saint-Alexis-des-Monts","gmap":"https:\/\/goo.gl\/maps\/d2tchpyuHUyjtrQG8","phone":"819 265-4000","website":"https:\/\/microbrasserienouvellefrance.com\/","lat":46.4495957697085,"lng":-73.1480013697085},{"id":25,"title":"Monsieur Champignons","address":"181, route Plante, Saint-Justin","gmap":"https:\/\/goo.gl\/maps\/Ca69qvPgsYCdHypg9","phone":"819 696-7013","website":"https:\/\/www.facebook.com\/profile.php?id=100070462475417","lat":46.2160315697085,"lng":-73.1007190697085},{"id":100,"title":"Passion Lavande","address":"190, rang de Saint-Francois-de-Pique-Dur, Saint-S\u00e9v\u00e8re","gmap":"https:\/\/goo.gl\/maps\/jZRP5m2S45aZ2tpL9","phone":"819 690-3540","website":"https:\/\/www.passionlavande.ca\/","lat":46.3616355197085,"lng":-72.9218215697085},{"id":36,"title":"Prendre Racine","address":"551, rang le petit Bellechasse Nord, Charette","gmap":"https:\/\/goo.gl\/maps\/U6qt99FdBbAVj36h6","phone":"819 266-0578","website":"https:\/\/prendreracine.ca\/","lat":46.4439567697085,"lng":-72.97455471970851}]