[{"id":48,"title":"Andr\u00e9 Buist Peintre","address":"121, Place Marconi, Yamachiche","gmap":"","phone":"819 296-2237","website":"https:\/\/www.maski.quebec\/artiste\/andre-buist\/","lat":46.28478561970849,"lng":-72.78756771970849},{"id":43,"title":"Arborea","address":"1233, boulevard Saint-Laurent Est, Louiseville","gmap":"https:\/\/goo.gl\/maps\/oYCMNVDubmzCEkv97","phone":"819 448-6966","website":"https:\/\/arborea.ca\/","lat":46.2606924197085,"lng":-72.89399806970849},{"id":44,"title":"Atelier Linda Godin","address":"980, chemin de l&#039;Esker, Saint-Mathieu-du-Parc","gmap":"","phone":"819 247-1717","website":"https:\/\/www.maski.quebec\/artiste\/linda-godin\/","lat":46.5627456197085,"lng":-72.93191736970849},{"id":46,"title":"Atelier Yamachiche P.Q.","address":"511, rue Sainte-Anne, Yamachiche","gmap":"https:\/\/goo.gl\/maps\/LfnZT2bf4ERpodVDA","phone":"819 266-3478","website":"https:\/\/www.maski.quebec\/artiste\/jean-noel\/","lat":46.2806458697085,"lng":-72.83040421970848},{"id":39,"title":"Carmen Colbert","address":"2530, avenue Principale, Saint-\u00c9lie-de-Caxton","gmap":"","phone":"819 221-2899","website":"https:\/\/www.maski.quebec\/artiste\/carmen-colbert\/","lat":46.4913665697085,"lng":-72.9611840697085},{"id":34,"title":"Cercle de fermi\u00e8res Sainte-Ang\u00e8le-de-Pr\u00e9mont","address":"3051, rue Bergeron, Saint-Paulin","gmap":"","phone":"819 380-7293","website":"https:\/\/www.maski.quebec\/artiste\/cercle-de-fermieres-ste-angele-de-premont\/","lat":46.4216078197085,"lng":-73.0125432197085},{"id":45,"title":"Claude Des Rosiers","address":"315, chemin de la Montagne Ronde, Charette","gmap":"","phone":"819 536-9957","website":"https:\/\/www.maski.quebec\/artiste\/claude-des-rosiers\/","lat":46.4642063197085,"lng":-72.88918416970849},{"id":24,"title":"Cr\u00e9ation D.C.","address":"201, rue Saint-Charles, Saint-\u00c9douard-de-Maskinong\u00e9","gmap":"","phone":"819 268-6727","website":"https:\/\/www.maski.quebec\/artiste\/creation-dc\/","lat":46.3264905197085,"lng":-73.14569286970848},{"id":32,"title":"Cr\u00e9ation Huguette","address":"1171, chemin de la Grande-Carri\u00e8re, Sainte-Ursule","gmap":"","phone":"819 228-3638","website":"https:\/\/www.maski.quebec\/artiste\/creation-huguette\/","lat":46.2738792197085,"lng":-73.0189331197085},{"id":36,"title":"Cr\u00e9ations 100% laine et herboristerie Sylvie Grenier","address":"308, rang du Petit Bois, Maskinong\u00e9","gmap":"","phone":"819 227-3430","website":"https:\/\/www.maski.quebec\/artiste\/sylvie-grenier\/","lat":46.2349890197085,"lng":-72.98342191970849},{"id":33,"title":"Cuir en douce","address":"1171, chemin de la Grande Carri\u00e8re, Sainte-Ursule","gmap":"","phone":"819 721-1417","website":"https:\/\/www.maski.quebec\/artiste\/cuir-en-douce\/","lat":46.2738792197085,"lng":-73.0189331197085},{"id":41,"title":"Des poteries et des potirons","address":"274, rang de Saint-Fran\u00e7ois-de-Pique-Dur, Saint-S\u00e9v\u00e8re","gmap":"https:\/\/goo.gl\/maps\/HvdAn4cvS89tTVEB7","phone":"819 264-6078","website":"https:\/\/www.maski.quebec\/artiste\/diane-tremblay-des-poteries-et-des-potirons\/","lat":46.3813329197085,"lng":-72.9351210197085},{"id":28,"title":"\u00c8re du vitrail","address":"630, route Gagn\u00e9, Saint-Justin","gmap":"","phone":"819 227-4632","website":"https:\/\/www.maski.quebec\/artiste\/ere-du-vitrail\/","lat":46.2528654197085,"lng":-73.08520076970849},{"id":30,"title":"Forge du Moulin","address":"195, route de l&#039;Ormi\u00e8re, Maskinong\u00e9","gmap":"","phone":"450 916-5422","website":"https:\/\/www.maski.quebec\/artiste\/forge-moulin\/","lat":46.2306328197085,"lng":-73.06945536970849},{"id":31,"title":"GAB artiste-peintre","address":"250, chemin Lac Diane, Sainte-Ang\u00e8le-de-Pr\u00e9mont","gmap":"","phone":"819 268-6035","website":"https:\/\/www.maski.quebec\/artiste\/gab-artiste-peintre\/","lat":46.3507794197085,"lng":-73.0705438197085},{"id":37,"title":"Guillemet","address":"538, chemin du Golf, Louiseville","gmap":"","phone":"819 383-1505","website":"https:\/\/www.maski.quebec\/artiste\/guillemet\/","lat":46.2666652697085,"lng":-72.9727185197085},{"id":92,"title":"Jean Bernard","address":"1233, boulevard Saint-Laurent Est, Louiseville","gmap":"https:\/\/goo.gl\/maps\/4rqptziEz4GY36We9","phone":"","website":"https:\/\/www.maski.quebec\/artiste\/jean-bernard\/","lat":46.2606924197085,"lng":-72.89399806970849},{"id":40,"title":"Judith Picard artiste-joailli\u00e8re","address":"351, avenue Saint-Paul, Saint-\u00c9lie-de-Caxton","gmap":"https:\/\/goo.gl\/maps\/H5w9pfYwREriX9zq7","phone":"819 268-8216","website":"https:\/\/www.maski.quebec\/artiste\/judith-picard\/","lat":46.4905539697085,"lng":-72.9637767697085},{"id":47,"title":"Maison La Tradition","address":"1210, chemin Principal, Saint-Mathieu-du-Parc","gmap":"https:\/\/goo.gl\/maps\/9V7bcoAThUTxdSZQ8","phone":"819 532-2641","website":"https:\/\/www.maski.quebec\/artiste\/maison-la-tradition\/","lat":46.6007683697085,"lng":-72.8683309697085},{"id":29,"title":"Meubles Glammo","address":"610, route Gagn\u00e9, Saint-Justin","gmap":"","phone":"514 912-1096","website":"https:\/\/www.facebook.com\/Meubles-Glammo-1472347919676946\/","lat":46.2526987697085,"lng":-73.08504676970851},{"id":27,"title":"M\u00dc","address":"1921, route Gagn\u00e9, Saint-Justin","gmap":"","phone":"819 699-7332","website":"https:\/\/www.instagram.com\/mu.poterie.ceramique\/","lat":46.2829617197085,"lng":-73.13377661970848},{"id":35,"title":"NX Marqueterie","address":"2950, rue Lafl\u00e8che, Saint-Paulin","gmap":"https:\/\/goo.gl\/maps\/5hxhBKw93aStGKXJ9","phone":"819 293-9004","website":"https:\/\/www.maski.quebec\/artiste\/nx-marqueterie\/","lat":46.4193943697085,"lng":-73.01092156970849},{"id":42,"title":"Rien ne se perd, tout se cr\u00e9e\u2026","address":"91, rue Principale, Saint-S\u00e9v\u00e8re","gmap":"https:\/\/goo.gl\/maps\/GtXv7VJEzvdfUGFdA","phone":"819 299-3857","website":"https:\/\/www.rienneseperd.com\/","lat":46.3470794697085,"lng":-72.90038016970848},{"id":83,"title":"Un brin de folie","address":"630, route Gagn\u00e9, Saint-Justin","gmap":"","phone":"819 227-1818","website":"","lat":46.2528654197085,"lng":-73.08520076970849}]